[
    {"municipio": "Alvarães", "DenunciasTotais": 45, "coordinates": [-65.775, -3.22727]},
    {"municipio": "Amaturá", "DenunciasTotais": 30, "coordinates": [-68.1983, -3.37444]},
    {"municipio": "Anamã", "DenunciasTotais": 60, "coordinates": [-61.3965, -3.56697]},
    {"municipio": "Anori", "DenunciasTotais": 10, "coordinates": [-61.6586, -3.77141]},
    {"municipio": "Apuí", "DenunciasTotais": 90, "coordinates": [-59.8711, -7.19456]},
    {"municipio": "Atalaia do Norte", "DenunciasTotais": 25, "coordinates": [-70.1963, -4.37028]},
    {"municipio": "Autazes", "DenunciasTotais": 85, "coordinates": [-58.1364, -3.5788]},
    {"municipio": "Barcelos", "DenunciasTotais": 15, "coordinates": [-62.9247, -0.977778]},
    {"municipio": "Barreirinha", "DenunciasTotais": 55, "coordinates": [-57.0672, -2.79278]},
    {"municipio": "Benjamin Constant", "DenunciasTotais": 40, "coordinates": [-70.0284, -4.3774]},
    {"municipio": "Borba", "DenunciasTotais": 50, "coordinates": [-59.5875, -4.3918]},
    {"municipio": "Boca do Acre", "DenunciasTotais": 65, "coordinates": [-67.3967, -8.75333]},
    {"municipio": "Boa Vista do Ramos", "DenunciasTotais": 25, "coordinates": [-59.0623, -2.97444]},
    {"municipio": "Canutama", "DenunciasTotais": 90, "coordinates": [-64.3958, -6.52583]},
    {"municipio": "Carauari", "DenunciasTotais": 20, "coordinates": [-66.9039, -4.88278]},
    {"municipio": "Careiro", "DenunciasTotais": 35, "coordinates": [-60.3619, -3.76833]},
    {"municipio": "Careiro da Várzea", "DenunciasTotais": 45, "coordinates": [-59.8247, -3.31778]},
    {"municipio": "Codajás", "DenunciasTotais": 80, "coordinates": [-62.065, -3.83778]},
    {"municipio": "Coari", "DenunciasTotais": 55, "coordinates": [-63.141, -4.0853]},
    {"municipio": "Envira", "DenunciasTotais": 10, "coordinates": [-70.0371, -7.4386]},
    {"municipio": "Eirunepé", "DenunciasTotais": 70, "coordinates": [-69.8661, -6.66028]},
    {"municipio": "Guajará", "DenunciasTotais": 60, "coordinates": [-72.5914, -7.53917]},
    {"municipio": "Humaitá", "DenunciasTotais": 45, "coordinates": [-63.0383, -7.51148]},
    {"municipio": "Iranduba", "DenunciasTotais": 50, "coordinates": [-60.1953, -3.2875]},
    {"municipio": "Ipixuna", "DenunciasTotais": 85, "coordinates": [-71.694, -7.0575]},
    {"municipio": "Itacoatiara", "DenunciasTotais": 65, "coordinates": [-58.4438, -3.1469]},
    {"municipio": "Itamarati", "DenunciasTotais": 35, "coordinates": [-68.2478, -6.43806]},
    {"municipio": "Japurá", "DenunciasTotais": 70, "coordinates": [-66.9161, -1.88028]},
    {"municipio": "Juruá", "DenunciasTotais": 50, "coordinates": [-66.0719, -3.48444]},
    {"municipio": "Jutaí", "DenunciasTotais": 55, "coordinates": [-66.7597, -2.75722]},
    {"municipio": "Lábrea", "DenunciasTotais": 60, "coordinates": [-64.7872, -7.25861]},
    {"municipio": "Manaus", "DenunciasTotais": 25, "coordinates": [-60.0112, -3.0823]},
    {"municipio": "Manacapuru", "DenunciasTotais": 70, "coordinates": [-60.6358, -3.3186]},
    {"municipio": "Manicoré", "DenunciasTotais": 50, "coordinates": [-61.3077, -5.80429]},
    {"municipio": "Maraã", "DenunciasTotais": 55, "coordinates": [-65.5788, -1.85368]},
    {"municipio": "Maués", "DenunciasTotais": 35, "coordinates": [-57.7275, -3.3786]},
    {"municipio": "Nova Olinda do Norte", "DenunciasTotais": 80, "coordinates": [-59.0942, -3.89222]},
    {"municipio": "Novo Aripuanã", "DenunciasTotais": 25, "coordinates": [-60.3797, -5.12556]},
    {"municipio": "Parintins", "DenunciasTotais": 45, "coordinates": [-56.7433, -2.6303]},
    {"municipio": "Pauini", "DenunciasTotais": 70, "coordinates": [-67.6739, -7.71361]},
    {"municipio": "Presidente Figueiredo", "DenunciasTotais": 75, "coordinates": [-60.0284, -2.03763]},
    {"municipio": "Santa Isabel do Rio Negro", "DenunciasTotais": 85, "coordinates": [-65.0025, -0.410278]},
    {"municipio": "Santo Antônio do Içá", "DenunciasTotais": 75, "coordinates": [-67.9289, -3.095]},
    {"municipio": "São Gabriel da Cachoeira", "DenunciasTotais": 70, "coordinates": [-67.0834, -0.11633]},
    {"municipio": "São Paulo de Olivença", "DenunciasTotais": 85, "coordinates": [-68.9275, -3.45861]},
    {"municipio": "Silves", "DenunciasTotais": 9, "coordinates": [-58.2139, -2.84083]}, 
    {"municipio": "Tabatinga", "DenunciasTotais": 7, "coordinates": [-69.9358, -4.2222]}, 
    {"municipio": "Tapauá", "DenunciasTotais": 10, "coordinates": [-63.1884, -5.62234]}, 
    {"municipio": "Tefé", "DenunciasTotais": 7, "coordinates": [-64.7038, -3.3558]}, 
    {"municipio": "Tonantins", "DenunciasTotais": 5, "coordinates": [-67.7914, -2.87333]}, 
    {"municipio": "Uarini", "DenunciasTotais": 4, "coordinates": [-65.2631, -2.99194]}, 
    {"municipio": "Urucará", "DenunciasTotais": 6, "coordinates": [-57.7709, -2.53861]}, 
    {"municipio": "Urucurituba", "DenunciasTotais": 3, "coordinates": [-58.1492, -3.12611]}
]
